{"name":"Kung Fu Chinese Restaurant","restaurant_type":"chinese","business_size":"medium","location_budget":200000,"state":"Kaduna","target_audience":"locals and travelers","foot_traffic":"high","affordability":"affordable","competitors":"various nearby restaurants","latitude":10.5486078,"longitude":7.4592312}
{"name":"Big Treat","restaurant_type":"pizza;regional;chinese;fish_and_chips;international","business_size":"medium","location_budget":200000,"state":"Kaduna","target_audience":"locals and travelers","foot_traffic":"high","affordability":"affordable","competitors":"various nearby restaurants","latitude":10.5475918,"longitude":7.4505505}
{"name":"Byblos","restaurant_type":"lebanese","business_size":"medium","location_budget":200000,"state":"Kaduna","target_audience":"locals and travelers","foot_traffic":"high","affordability":"affordable","competitors":"various nearby restaurants","latitude":10.5436064,"longitude":7.4315809}
{"name":"Food Palace","restaurant_type":"Unknown","business_size":"medium","location_budget":200000,"state":"Kaduna","target_audience":"locals and travelers","foot_traffic":"high","affordability":"affordable","competitors":"various nearby restaurants","latitude":10.5118602,"longitude":7.4543399}
{"name":"Mr. Biggs","restaurant_type":"Unknown","business_size":"medium","location_budget":200000,"state":"Kaduna","target_audience":"locals and travelers","foot_traffic":"high","affordability":"affordable","competitors":"various nearby restaurants","latitude":10.5114066,"longitude":7.4546027}
{"name":"7 Star","restaurant_type":"Unknown","business_size":"medium","location_budget":200000,"state":"Kaduna","target_audience":"locals and travelers","foot_traffic":"high","affordability":"affordable","competitors":"various nearby restaurants","latitude":10.5475755,"longitude":7.4568973}
{"name":"Chinese Restaurant","restaurant_type":"chinese","business_size":"medium","location_budget":200000,"state":"Kaduna","target_audience":"locals and travelers","foot_traffic":"high","affordability":"affordable","competitors":"various nearby restaurants","latitude":10.5363721,"longitude":7.4686203}
{"name":"Chicken Republic","restaurant_type":"Unknown","business_size":"medium","location_budget":200000,"state":"Kaduna","target_audience":"locals and travelers","foot_traffic":"high","affordability":"affordable","competitors":"various nearby restaurants","latitude":10.5227378,"longitude":7.433268}
{"name":"Tawakalitu Restaurant","restaurant_type":"african","business_size":"medium","location_budget":200000,"state":"Kaduna","target_audience":"locals and travelers","foot_traffic":"high","affordability":"affordable","competitors":"various nearby restaurants","latitude":10.5058073,"longitude":7.4324104}
{"name":"West Point","restaurant_type":"regional;international;african","business_size":"medium","location_budget":200000,"state":"Kaduna","target_audience":"locals and travelers","foot_traffic":"high","affordability":"affordable","competitors":"various nearby restaurants","latitude":10.505088,"longitude":7.4307806}
{"name":"The Tea Place By JSEN Delights","restaurant_type":"coffee_shop;burger;pizza;sandwich;kebab","business_size":"medium","location_budget":200000,"state":"Kaduna","target_audience":"locals and travelers","foot_traffic":"high","affordability":"affordable","competitors":"various nearby restaurants","latitude":10.5481739,"longitude":7.4521665}
